{
  "markerdata": [
    {
      "title": "김해 어방동",
      "lat": "35.241141",
      "lng": "128.899906"
    },
    {
      "title": "장전동",
      "img": "./img/장전동.JPG",
      "lat": "35.237908",
      "lng": "129.082157"
    },
    {
      "title": "장전동 술집 앞",
      "lat": "35.237906",
      "lng": "129.083242"
    },
    {
      "title": "광안리",
      "lat": "35.154417",
      "lng": "129.121073"
    },
    {
      "title": "광안리 공사현장",
      "lat": "35.153678",
      "lng": "129.118083"
    },
    {
      "title": "광안동산오차드힐아파트 앞",
      "lat": "35.154208",
      "lng": "129.117583"
    },
    {
      "title": "광안목",
      "lat": "35.154965",
      "lng": "129.118454"
    },
    {
      "title": "부곡동",
      "lat": "35.227915",
      "lng": "129.092064"
    }
  ]
}
